{
"type": "FeatureCollection",
"features": [
{ "type": "Feature", "properties": { "PropertyName": "HFL ASHTABULA HOMES", "City": "Pasadena", "Zip": "91104-4202", "Latitude": 34.1593, "Longitude": -118.142477, "TargetTenantType": "Family", "S8_1_ProgramName": "PRAC/811", "LIHTC_1_ProgramName": "", "blue": "Long Beach", "green": "Pasadena", "purple": "Inglewood", "orange": "Palmdale", "gray": "Los Angeles", "color": "green" }, "geometry": { "type": "Point", "coordinates": [ -118.142477, 34.1593 ] } },
{ "type": "Feature", "properties": { "PropertyName": "CASA D'ORO II", "City": "Pasadena", "Zip": "91104-2946", "Latitude": 34.16592, "Longitude": -118.12453, "TargetTenantType": "Disabled", "S8_1_ProgramName": "PRAC/811", "LIHTC_1_ProgramName": "", "blue": "Long Beach", "green": "Pasadena", "purple": "Inglewood", "orange": "Palmdale", "gray": "Los Angeles", "color": "green" }, "geometry": { "type": "Point", "coordinates": [ -118.12453, 34.16592 ] } },
{ "type": "Feature", "properties": { "PropertyName": "PASADENA ACCESSIBLE APARTMENTS", "City": "Pasadena", "Zip": "91104-2419", "Latitude": 34.17059, "Longitude": -118.13181, "TargetTenantType": "Disabled", "S8_1_ProgramName": "PRAC/811", "LIHTC_1_ProgramName": "", "blue": "Long Beach", "green": "Pasadena", "purple": "Inglewood", "orange": "Palmdale", "gray": "Los Angeles", "color": "green" }, "geometry": { "type": "Point", "coordinates": [ -118.13181, 34.17059 ] } },
{ "type": "Feature", "properties": { "PropertyName": "WYNN HOUSE", "City": "Pasadena", "Zip": "91107-2333", "Latitude": 34.15428, "Longitude": -118.11103, "TargetTenantType": "Disabled", "S8_1_ProgramName": "PRAC/811", "LIHTC_1_ProgramName": "", "blue": "Long Beach", "green": "Pasadena", "purple": "Inglewood", "orange": "Palmdale", "gray": "Los Angeles", "color": "green" }, "geometry": { "type": "Point", "coordinates": [ -118.11103, 34.15428 ] } },
{ "type": "Feature", "properties": { "PropertyName": "CASA D'ORO I", "City": "Pasadena", "Zip": "91104-2708", "Latitude": 34.16998, "Longitude": -118.11413, "TargetTenantType": "Disabled", "S8_1_ProgramName": "PRAC/811", "LIHTC_1_ProgramName": "", "blue": "Long Beach", "green": "Pasadena", "purple": "Inglewood", "orange": "Palmdale", "gray": "Los Angeles", "color": "green" }, "geometry": { "type": "Point", "coordinates": [ -118.11413, 34.16998 ] } },
{ "type": "Feature", "properties": { "PropertyName": "VILLA YUCATAN", "City": "Pasadena", "Zip": "91107-2415", "Latitude": 34.15429, "Longitude": -118.10547, "TargetTenantType": "Family", "S8_1_ProgramName": "LMSA", "LIHTC_1_ProgramName": "", "blue": "Long Beach", "green": "Pasadena", "purple": "Inglewood", "orange": "Palmdale", "gray": "Los Angeles", "color": "green" }, "geometry": { "type": "Point", "coordinates": [ -118.10547, 34.15429 ] } },
{ "type": "Feature", "properties": { "PropertyName": "GREEN HOTEL", "City": "Pasadena", "Zip": "91105-2043", "Latitude": 34.14442, "Longitude": -118.14966, "TargetTenantType": "Elderly", "S8_1_ProgramName": "LMSA", "LIHTC_1_ProgramName": "", "blue": "Long Beach", "green": "Pasadena", "purple": "Inglewood", "orange": "Palmdale", "gray": "Los Angeles", "color": "green" }, "geometry": { "type": "Point", "coordinates": [ -118.14966, 34.14442 ] } },
{ "type": "Feature", "properties": { "PropertyName": "THE GROVES", "City": "Pasadena", "Zip": "91104-4569", "Latitude": 34.16146, "Longitude": -118.13624, "TargetTenantType": "Family", "S8_1_ProgramName": "LMSA", "LIHTC_1_ProgramName": "4% Tax Credit", "blue": "Long Beach", "green": "Pasadena", "purple": "Inglewood", "orange": "Palmdale", "gray": "Los Angeles", "color": "green" }, "geometry": { "type": "Point", "coordinates": [ -118.13624, 34.16146 ] } },
{ "type": "Feature", "properties": { "PropertyName": "MAGNOLIA TOWNHOMES", "City": "Pasadena", "Zip": "91103-2665", "Latitude": 34.16591, "Longitude": -118.14898, "TargetTenantType": "Family", "S8_1_ProgramName": "Sec 8 NC", "LIHTC_1_ProgramName": "", "blue": "Long Beach", "green": "Pasadena", "purple": "Inglewood", "orange": "Palmdale", "gray": "Los Angeles", "color": "green" }, "geometry": { "type": "Point", "coordinates": [ -118.14898, 34.16591 ] } },
{ "type": "Feature", "properties": { "PropertyName": "HUDSON GARDENS", "City": "Pasadena", "Zip": "91104-2868", "Latitude": 34.16725, "Longitude": -118.13408, "TargetTenantType": "Elderly", "S8_1_ProgramName": "HFDA/8 NC", "LIHTC_1_ProgramName": "", "blue": "Long Beach", "green": "Pasadena", "purple": "Inglewood", "orange": "Palmdale", "gray": "Los Angeles", "color": "green" }, "geometry": { "type": "Point", "coordinates": [ -118.13408, 34.16725 ] } },
{ "type": "Feature", "properties": { "PropertyName": "ALLEN HOUSE", "City": "Pasadena", "Zip": "91107-2303", "Latitude": 34.15625, "Longitude": -118.112928, "TargetTenantType": "Disabled", "S8_1_ProgramName": "PRAC/811", "LIHTC_1_ProgramName": "", "blue": "Long Beach", "green": "Pasadena", "purple": "Inglewood", "orange": "Palmdale", "gray": "Los Angeles", "color": "green" }, "geometry": { "type": "Point", "coordinates": [ -118.112928, 34.15625 ] } },
{ "type": "Feature", "properties": { "PropertyName": "ROSEWOOD COURT", "City": "Pasadena", "Zip": "91103-1660", "Latitude": 34.17827, "Longitude": -118.15067, "TargetTenantType": "Elderly", "S8_1_ProgramName": "PRAC/202", "LIHTC_1_ProgramName": "", "blue": "Long Beach", "green": "Pasadena", "purple": "Inglewood", "orange": "Palmdale", "gray": "Los Angeles", "color": "green" }, "geometry": { "type": "Point", "coordinates": [ -118.15067, 34.17827 ] } },
{ "type": "Feature", "properties": { "PropertyName": "WAGNER HOUSE", "City": "Pasadena", "Zip": "91107-2341", "Latitude": 34.15351, "Longitude": -118.1119, "TargetTenantType": "Disabled", "S8_1_ProgramName": "PRAC/811", "LIHTC_1_ProgramName": "", "blue": "Long Beach", "green": "Pasadena", "purple": "Inglewood", "orange": "Palmdale", "gray": "Los Angeles", "color": "green" }, "geometry": { "type": "Point", "coordinates": [ -118.1119, 34.15351 ] } },
{ "type": "Feature", "properties": { "PropertyName": "VILLA APARTMENTS", "City": "Pasadena", "Zip": "91107-2434", "Latitude": 34.15447, "Longitude": -118.10718, "TargetTenantType": "Disabled", "S8_1_ProgramName": "PRAC/811", "LIHTC_1_ProgramName": "", "blue": "Long Beach", "green": "Pasadena", "purple": "Inglewood", "orange": "Palmdale", "gray": "Los Angeles", "color": "green" }, "geometry": { "type": "Point", "coordinates": [ -118.10718, 34.15447 ] } },
{ "type": "Feature", "properties": { "PropertyName": "DUDLEY HOUSE", "City": "Pasadena", "Zip": "91104-4122", "Latitude": 34.162746, "Longitude": -118.106497, "TargetTenantType": "Disabled", "S8_1_ProgramName": "PRAC/811", "LIHTC_1_ProgramName": "", "blue": "Long Beach", "green": "Pasadena", "purple": "Inglewood", "orange": "Palmdale", "gray": "Los Angeles", "color": "green" }, "geometry": { "type": "Point", "coordinates": [ -118.106497, 34.162746 ] } },
{ "type": "Feature", "properties": { "PropertyName": "SIERRA ROSE", "City": "Pasadena", "Zip": "91107", "Latitude": 34.14228, "Longitude": -118.08731, "TargetTenantType": "Disabled", "S8_1_ProgramName": "PRAC/811", "LIHTC_1_ProgramName": "", "blue": "Long Beach", "green": "Pasadena", "purple": "Inglewood", "orange": "Palmdale", "gray": "Los Angeles", "color": "green" }, "geometry": { "type": "Point", "coordinates": [ -118.08731, 34.14228 ] } },
{ "type": "Feature", "properties": { "PropertyName": "WASHINGTON TOWNHOUSES", "City": "Pasadena", "Zip": "91104-2263", "Latitude": 34.16901, "Longitude": -118.13956, "TargetTenantType": "Family", "S8_1_ProgramName": "LMSA", "LIHTC_1_ProgramName": "", "blue": "Long Beach", "green": "Pasadena", "purple": "Inglewood", "orange": "Palmdale", "gray": "Los Angeles", "color": "green" }, "geometry": { "type": "Point", "coordinates": [ -118.13956, 34.16901 ] } },
{ "type": "Feature", "properties": { "PropertyName": "NORTHWEST MANOR I", "City": "Pasadena", "Zip": "91103-2609", "Latitude": 34.16285, "Longitude": -118.14913, "TargetTenantType": "Family", "S8_1_ProgramName": "LMSA", "LIHTC_1_ProgramName": "4% Tax Credit", "blue": "Long Beach", "green": "Pasadena", "purple": "Inglewood", "orange": "Palmdale", "gray": "Los Angeles", "color": "green" }, "geometry": { "type": "Point", "coordinates": [ -118.14913, 34.16285 ] } },
{ "type": "Feature", "properties": { "PropertyName": "CROWN HOUSE", "City": "Pasadena", "Zip": "91107-4425", "Latitude": 34.14228, "Longitude": -118.08731, "TargetTenantType": "Disabled", "S8_1_ProgramName": "202/8 NC", "LIHTC_1_ProgramName": "", "blue": "Long Beach", "green": "Pasadena", "purple": "Inglewood", "orange": "Palmdale", "gray": "Los Angeles", "color": "green" }, "geometry": { "type": "Point", "coordinates": [ -118.08731, 34.14228 ] } },
{ "type": "Feature", "properties": { "PropertyName": "LA PINTORESCA", "City": "Pasadena", "Zip": "91103-2276", "Latitude": 34.16754, "Longitude": -118.14998, "TargetTenantType": "Elderly", "S8_1_ProgramName": "PD/8 SR", "LIHTC_1_ProgramName": "", "blue": "Long Beach", "green": "Pasadena", "purple": "Inglewood", "orange": "Palmdale", "gray": "Los Angeles", "color": "green" }, "geometry": { "type": "Point", "coordinates": [ -118.14998, 34.16754 ] } },
{ "type": "Feature", "properties": { "PropertyName": "PILGRIM TOWER NORTH", "City": "Pasadena", "Zip": "91101-1158", "Latitude": 34.15381, "Longitude": -118.13917, "TargetTenantType": "Elderly", "S8_1_ProgramName": "LMSA", "LIHTC_1_ProgramName": "4% Tax Credit", "blue": "Long Beach", "green": "Pasadena", "purple": "Inglewood", "orange": "Palmdale", "gray": "Los Angeles", "color": "green" }, "geometry": { "type": "Point", "coordinates": [ -118.13917, 34.15381 ] } },
{ "type": "Feature", "properties": { "PropertyName": "PILGRIM TOWER EAST", "City": "Pasadena", "Zip": "91101-1433", "Latitude": 34.15355, "Longitude": -118.13836, "TargetTenantType": "Elderly", "S8_1_ProgramName": "HFDA/8 NC", "LIHTC_1_ProgramName": "", "blue": "Long Beach", "green": "Pasadena", "purple": "Inglewood", "orange": "Palmdale", "gray": "Los Angeles", "color": "green" }, "geometry": { "type": "Point", "coordinates": [ -118.13836, 34.15355 ] } },
{ "type": "Feature", "properties": { "PropertyName": "SILVERCREST-PASADENA", "City": "Pasadena", "Zip": "91106-1710", "Latitude": 34.14812, "Longitude": -118.13009, "TargetTenantType": "Elderly", "S8_1_ProgramName": "PRAC/202", "LIHTC_1_ProgramName": "", "blue": "Long Beach", "green": "Pasadena", "purple": "Inglewood", "orange": "Palmdale", "gray": "Los Angeles", "color": "green" }, "geometry": { "type": "Point", "coordinates": [ -118.13009, 34.14812 ] } },
{ "type": "Feature", "properties": { "PropertyName": "COMMUNITY ARMS APARTMENTS", "City": "Pasadena", "Zip": "91103-3432", "Latitude": 34.15791, "Longitude": -118.14691, "TargetTenantType": "Elderly", "S8_1_ProgramName": "LMSA", "LIHTC_1_ProgramName": "4% Tax Credit", "blue": "Long Beach", "green": "Pasadena", "purple": "Inglewood", "orange": "Palmdale", "gray": "Los Angeles", "color": "green" }, "geometry": { "type": "Point", "coordinates": [ -118.14691, 34.15791 ] } },
{ "type": "Feature", "properties": { "PropertyName": "TELACU COURTYARD", "City": "Pasadena", "Zip": "91103-3844", "Latitude": 34.149221, "Longitude": -118.149367, "TargetTenantType": "Elderly", "S8_1_ProgramName": "PRAC/202", "LIHTC_1_ProgramName": "", "blue": "Long Beach", "green": "Pasadena", "purple": "Inglewood", "orange": "Palmdale", "gray": "Los Angeles", "color": "green" }, "geometry": { "type": "Point", "coordinates": [ -118.149367, 34.149221 ] } },
{ "type": "Feature", "properties": { "PropertyName": "VILLA RAYMOND", "City": "Pasadena", "Zip": "91103-3702", "Latitude": 34.15363, "Longitude": -118.14903, "TargetTenantType": "Family", "S8_1_ProgramName": "LMSA", "LIHTC_1_ProgramName": "", "blue": "Long Beach", "green": "Pasadena", "purple": "Inglewood", "orange": "Palmdale", "gray": "Los Angeles", "color": "green" }, "geometry": { "type": "Point", "coordinates": [ -118.14903, 34.15363 ] } },
{ "type": "Feature", "properties": { "PropertyName": "PARKE LOS ROBLES", "City": "Pasadena", "Zip": "91101-1006", "Latitude": 34.15664, "Longitude": -118.14142, "TargetTenantType": "Family", "S8_1_ProgramName": "", "LIHTC_1_ProgramName": "9% Tax Credit", "blue": "Long Beach", "green": "Pasadena", "purple": "Inglewood", "orange": "Palmdale", "gray": "Los Angeles", "color": "green" }, "geometry": { "type": "Point", "coordinates": [ -118.14142, 34.15664 ] } },
{ "type": "Feature", "properties": { "PropertyName": "HOLLY STREET VILLAGE", "City": "Pasadena", "Zip": "91103-3910", "Latitude": 34.14762, "Longitude": -118.14753, "TargetTenantType": "", "S8_1_ProgramName": "", "LIHTC_1_ProgramName": "4% Tax Credit", "blue": "Long Beach", "green": "Pasadena", "purple": "Inglewood", "orange": "Palmdale", "gray": "Los Angeles", "color": "green" }, "geometry": { "type": "Point", "coordinates": [ -118.14753, 34.14762 ] } },
{ "type": "Feature", "properties": { "PropertyName": "VILLA LOS ROBLES", "City": "Pasadena", "Zip": "91101-1357", "Latitude": 34.15393, "Longitude": -118.14156, "TargetTenantType": "Family", "S8_1_ProgramName": "", "LIHTC_1_ProgramName": "9% Tax Credit", "blue": "Long Beach", "green": "Pasadena", "purple": "Inglewood", "orange": "Palmdale", "gray": "Los Angeles", "color": "green" }, "geometry": { "type": "Point", "coordinates": [ -118.14156, 34.15393 ] } },
{ "type": "Feature", "properties": { "PropertyName": "WASHINGTON VILLA APARTMENTS", "City": "Pasadena", "Zip": "91104-2195", "Latitude": 34.16879, "Longitude": -118.14527, "TargetTenantType": "Family", "S8_1_ProgramName": "", "LIHTC_1_ProgramName": "9% Tax Credit", "blue": "Long Beach", "green": "Pasadena", "purple": "Inglewood", "orange": "Palmdale", "gray": "Los Angeles", "color": "green" }, "geometry": { "type": "Point", "coordinates": [ -118.14527, 34.16879 ] } },
{ "type": "Feature", "properties": { "PropertyName": "EUCLID VILLA TRANSITION HOUSING", "City": "Pasadena", "Zip": "91101-4666", "Latitude": 34.14278, "Longitude": -118.1428, "TargetTenantType": "Family", "S8_1_ProgramName": "", "LIHTC_1_ProgramName": "9% Tax Credit", "blue": "Long Beach", "green": "Pasadena", "purple": "Inglewood", "orange": "Palmdale", "gray": "Los Angeles", "color": "green" }, "geometry": { "type": "Point", "coordinates": [ -118.1428, 34.14278 ] } },
{ "type": "Feature", "properties": { "PropertyName": "ORANGE GROVE GARDENS", "City": "Pasadena", "Zip": "91104-5306", "Latitude": 34.15775, "Longitude": -118.1449, "TargetTenantType": "Family", "S8_1_ProgramName": "", "LIHTC_1_ProgramName": "9% Tax Credit", "blue": "Long Beach", "green": "Pasadena", "purple": "Inglewood", "orange": "Palmdale", "gray": "Los Angeles", "color": "green" }, "geometry": { "type": "Point", "coordinates": [ -118.1449, 34.15775 ] } },
{ "type": "Feature", "properties": { "PropertyName": "KINGS VILLAGES", "City": "Pasadena", "Zip": "91103-2513", "Latitude": 34.165907, "Longitude": -118.152628, "TargetTenantType": "Family", "S8_1_ProgramName": "PD/8 Existing", "LIHTC_1_ProgramName": "4% Tax Credit", "blue": "Long Beach", "green": "Pasadena", "purple": "Inglewood", "orange": "Palmdale", "gray": "Los Angeles", "color": "green" }, "geometry": { "type": "Point", "coordinates": [ -118.152628, 34.165907 ] } },
{ "type": "Feature", "properties": { "PropertyName": "HERITAGE SQUARE", "City": "Pasadena", "Zip": "91103-3083", "Latitude": 34.15893, "Longitude": -118.150419, "TargetTenantType": "", "S8_1_ProgramName": "", "LIHTC_1_ProgramName": "9% Tax Credit", "blue": "Long Beach", "green": "Pasadena", "purple": "Inglewood", "orange": "Palmdale", "gray": "Los Angeles", "color": "green" }, "geometry": { "type": "Point", "coordinates": [ -118.150419, 34.15893 ] } }
]
}
